$GPGGA,102301.221,4213.810,N,00837.611,W,1,12,1.0,0.0,M,0.0,M,,*7B
$GPGSA,A,3,01,02,03,04,05,06,07,08,09,10,11,12,1.0,1.0,1.0*30
$GPRMC,102301.221,A,4213.810,N,00837.611,W,4290.1,012.8,141121,000.0,W*5C
$GPGGA,102302.221,4214.984,N,00837.343,W,1,12,1.0,0.0,M,0.0,M,,*71
$GPGSA,A,3,01,02,03,04,05,06,07,08,09,10,11,12,1.0,1.0,1.0*30
$GPRMC,102302.221,A,4214.984,N,00837.343,W,14477.2,015.9,141121,000.0,W*6D
$GPGGA,102303.221,4218.916,N,00836.220,W,1,12,1.0,0.0,M,0.0,M,,*72
$GPGSA,A,3,01,02,03,04,05,06,07,08,09,10,11,12,1.0,1.0,1.0*30
$GPRMC,102303.221,A,4218.916,N,00836.220,W,37435.4,003.4,141121,000.0,W*65
$GPGGA,102304.221,4229.298,N,00835.602,W,1,12,1.0,0.0,M,0.0,M,,*7D
$GPGSA,A,3,01,02,03,04,05,06,07,08,09,10,11,12,1.0,1.0,1.0*30
$GPRMC,102304.221,A,4229.298,N,00835.602,W,43599.7,000.8,141121,000.0,W*62
$GPGGA,102305.221,4241.400,N,00835.437,W,1,12,1.0,0.0,M,0.0,M,,*71
$GPGSA,A,3,01,02,03,04,05,06,07,08,09,10,11,12,1.0,1.0,1.0*30
$GPRMC,102305.221,A,4241.400,N,00835.437,W,31493.1,358.9,141121,000.0,W*69
$GPGGA,102306.221,4250.142,N,00835.602,W,1,12,1.0,0.0,M,0.0,M,,*75
$GPGSA,A,3,01,02,03,04,05,06,07,08,09,10,11,12,1.0,1.0,1.0*30
$GPRMC,102306.221,A,4250.142,N,00835.602,W,25278.3,355.0,141121,000.0,W*6D
$GPGGA,102307.221,4257.144,N,00836.220,W,1,12,1.0,0.0,M,0.0,M,,*72
$GPGSA,A,3,01,02,03,04,05,06,07,08,09,10,11,12,1.0,1.0,1.0*30
$GPRMC,102307.221,A,4257.144,N,00836.220,W,18029.2,071.5,141121,000.0,W*63
$GPGGA,102308.221,4259.224,N,00829.999,W,1,12,1.0,0.0,M,0.0,M,,*71
$GPGSA,A,3,01,02,03,04,05,06,07,08,09,10,11,12,1.0,1.0,1.0*30
$GPRMC,102308.221,A,4259.224,N,00829.999,W,8799.8,088.4,141121,000.0,W*50
$GPGGA,102309.221,4259.315,N,00826.662,W,1,12,1.0,0.0,M,0.0,M,,*77
$GPGSA,A,3,01,02,03,04,05,06,07,08,09,10,11,12,1.0,1.0,1.0*30
$GPRMC,102309.221,A,4259.315,N,00826.662,W,14798.0,163.2,141121,000.0,W*60
$GPGGA,102310.221,4255.304,N,00825.447,W,1,12,1.0,0.0,M,0.0,M,,*75
$GPGSA,A,3,01,02,03,04,05,06,07,08,09,10,11,12,1.0,1.0,1.0*30
$GPRMC,102310.221,A,4255.304,N,00825.447,W,2837.0,157.8,141121,000.0,W*52
$GPGGA,102311.221,4254.550,N,00825.138,W,1,12,1.0,0.0,M,0.0,M,,*7F
$GPGSA,A,3,01,02,03,04,05,06,07,08,09,10,11,12,1.0,1.0,1.0*30
$GPRMC,102311.221,A,4254.550,N,00825.138,W,2164.0,164.4,141121,000.0,W*5B
$GPGGA,102312.221,4253.961,N,00824.973,W,1,12,1.0,0.0,M,0.0,M,,*73
$GPGSA,A,3,01,02,03,04,05,06,07,08,09,10,11,12,1.0,1.0,1.0*30
$GPRMC,102312.221,A,4253.961,N,00824.973,W,2388.4,164.1,141121,000.0,W*56
$GPGGA,102313.221,4253.313,N,00824.787,W,1,12,1.0,0.0,M,0.0,M,,*78
$GPGSA,A,3,01,02,03,04,05,06,07,08,09,10,11,12,1.0,1.0,1.0*30
$GPRMC,102313.221,A,4253.313,N,00824.787,W,13214.6,143.8,141121,000.0,W*67
$GPGGA,102314.221,4250.081,N,00822.419,W,1,12,1.0,0.0,M,0.0,M,,*76
$GPGSA,A,3,01,02,03,04,05,06,07,08,09,10,11,12,1.0,1.0,1.0*30
$GPRMC,102314.221,A,4250.081,N,00822.419,W,36413.1,132.3,141121,000.0,W*65
$GPGGA,102315.221,4242.218,N,00813.767,W,1,12,1.0,0.0,M,0.0,M,,*7E
$GPGSA,A,3,01,02,03,04,05,06,07,08,09,10,11,12,1.0,1.0,1.0*30
$GPRMC,102315.221,A,4242.218,N,00813.767,W,30930.9,131.6,141121,000.0,W*69
$GPGGA,102316.221,4235.612,N,00806.310,W,1,12,1.0,0.0,M,0.0,M,,*73
$GPGSA,A,3,01,02,03,04,05,06,07,08,09,10,11,12,1.0,1.0,1.0*30
$GPRMC,102316.221,A,4235.612,N,00806.310,W,67715.9,109.2,141121,000.0,W*60
$GPGGA,102317.221,4227.596,N,00743.239,W,1,12,1.0,0.0,M,0.0,M,,*7A
$GPGSA,A,3,01,02,03,04,05,06,07,08,09,10,11,12,1.0,1.0,1.0*30
$GPRMC,102317.221,A,4227.596,N,00743.239,W,108375.5,108.6,141121,000.0,W*5A
$GPGGA,102318.221,4215.175,N,00706.160,W,1,12,1.0,0.0,M,0.0,M,,*73
$GPGSA,A,3,01,02,03,04,05,06,07,08,09,10,11,12,1.0,1.0,1.0*30
$GPRMC,102318.221,A,4215.175,N,00706.160,W,87785.9,111.1,141121,000.0,W*6D
$GPGGA,102319.221,4203.936,N,00636.991,W,1,12,1.0,0.0,M,0.0,M,,*7E
$GPGSA,A,3,01,02,03,04,05,06,07,08,09,10,11,12,1.0,1.0,1.0*30
$GPRMC,102319.221,A,4203.936,N,00636.991,W,183012.0,120.7,141121,000.0,W*51
$GPGGA,102320.221,4132.365,N,00543.597,W,1,12,1.0,0.0,M,0.0,M,,*72
$GPGSA,A,3,01,02,03,04,05,06,07,08,09,10,11,12,1.0,1.0,1.0*30
$GPRMC,102320.221,A,4132.365,N,00543.597,W,188323.8,121.8,141121,000.0,W*51
$GPGGA,102321.221,4059.167,N,00449.874,W,1,12,1.0,0.0,M,0.0,M,,*74
$GPGSA,A,3,01,02,03,04,05,06,07,08,09,10,11,12,1.0,1.0,1.0*30
$GPRMC,102321.221,A,4059.167,N,00449.874,W,70255.0,100.7,141121,000.0,W*65
$GPGGA,102322.221,4054.437,N,00424.825,W,1,12,1.0,0.0,M,0.0,M,,*75
$GPGSA,A,3,01,02,03,04,05,06,07,08,09,10,11,12,1.0,1.0,1.0*30
$GPRMC,102322.221,A,4054.437,N,00424.825,W,81224.2,089.0,141121,000.0,W*69
$GPGGA,102323.221,4054.935,N,00354.998,W,1,12,1.0,0.0,M,0.0,M,,*7C
$GPGSA,A,3,01,02,03,04,05,06,07,08,09,10,11,12,1.0,1.0,1.0*30
$GPRMC,102323.221,A,4054.935,N,00354.998,W,80447.5,103.3,141121,000.0,W*65
$GPGGA,102324.221,4048.267,N,00326.818,W,1,12,1.0,0.0,M,0.0,M,,*76
$GPGSA,A,3,01,02,03,04,05,06,07,08,09,10,11,12,1.0,1.0,1.0*30
$GPRMC,102324.221,A,4048.267,N,00326.818,W,39763.3,108.4,141121,000.0,W*62
$GPGGA,102325.221,4043.837,N,00313.469,W,1,12,1.0,0.0,M,0.0,M,,*7F
$GPGSA,A,3,01,02,03,04,05,06,07,08,09,10,11,12,1.0,1.0,1.0*30
$GPRMC,102325.221,A,4043.837,N,00313.469,W,42425.8,124.0,141121,000.0,W*67
$GPGGA,102326.221,4036.024,N,00301.851,W,1,12,1.0,0.0,M,0.0,M,,*70
$GPGSA,A,3,01,02,03,04,05,06,07,08,09,10,11,12,1.0,1.0,1.0*30
$GPRMC,102326.221,A,4036.024,N,00301.851,W,75140.5,175.7,141121,000.0,W*64
$GPGGA,102327.221,4015.200,N,00300.286,W,1,12,1.0,0.0,M,0.0,M,,*75
$GPGSA,A,3,01,02,03,04,05,06,07,08,09,10,11,12,1.0,1.0,1.0*30
$GPRMC,102327.221,A,4015.200,N,00300.286,W,52930.0,232.9,141121,000.0,W*60
$GPGGA,102328.221,4004.873,N,00313.964,W,1,12,1.0,0.0,M,0.0,M,,*71
$GPGSA,A,3,01,02,03,04,05,06,07,08,09,10,11,12,1.0,1.0,1.0*30
$GPRMC,102328.221,A,4004.873,N,00313.964,W,38263.5,277.6,141121,000.0,W*6E
$GPGGA,102329.221,4006.701,N,00327.642,W,1,12,1.0,0.0,M,0.0,M,,*74
$GPGSA,A,3,01,02,03,04,05,06,07,08,09,10,11,12,1.0,1.0,1.0*30
$GPRMC,102329.221,A,4006.701,N,00327.642,W,67933.2,288.7,141121,000.0,W*69
$GPGGA,102330.221,4014.319,N,00350.219,W,1,12,1.0,0.0,M,0.0,M,,*78
$GPGSA,A,3,01,02,03,04,05,06,07,08,09,10,11,12,1.0,1.0,1.0*30
$GPRMC,102330.221,A,4014.319,N,00350.219,W,41419.2,315.9,141121,000.0,W*6F
$GPGGA,102331.221,4023.555,N,00359.200,W,1,12,1.0,0.0,M,0.0,M,,*72
$GPGSA,A,3,01,02,03,04,05,06,07,08,09,10,11,12,1.0,1.0,1.0*30
$GPRMC,102331.221,A,4023.555,N,00359.200,W,45631.2,025.5,141121,000.0,W*65
$GPGGA,102332.221,4035.461,N,00353.514,W,1,12,1.0,0.0,M,0.0,M,,*78
$GPGSA,A,3,01,02,03,04,05,06,07,08,09,10,11,12,1.0,1.0,1.0*30
$GPRMC,102332.221,A,4035.461,N,00353.514,W,32346.6,058.3,141121,000.0,W*62
$GPGGA,102333.221,4041.119,N,00344.327,W,1,12,1.0,0.0,M,0.0,M,,*70
$GPGSA,A,3,01,02,03,04,05,06,07,08,09,10,11,12,1.0,1.0,1.0*30
$GPRMC,102333.221,A,4041.119,N,00344.327,W,20277.6,079.4,141121,000.0,W*6E
$GPGGA,102334.221,4042.463,N,00337.117,W,1,12,1.0,0.0,M,0.0,M,,*79
$GPGSA,A,3,01,02,03,04,05,06,07,08,09,10,11,12,1.0,1.0,1.0*30
$GPRMC,102334.221,A,4042.463,N,00337.117,W,20064.8,099.7,141121,000.0,W*64
$GPGGA,102335.221,4041.244,N,00329.949,W,1,12,1.0,0.0,M,0.0,M,,*74
$GPGSA,A,3,01,02,03,04,05,06,07,08,09,10,11,12,1.0,1.0,1.0*30
$GPRMC,102335.221,A,4041.244,N,00329.949,W,16807.9,102.9,141121,000.0,W*6D
$GPGGA,102336.221,4039.901,N,00324.057,W,1,12,1.0,0.0,M,0.0,M,,*79
$GPGSA,A,3,01,02,03,04,05,06,07,08,09,10,11,12,1.0,1.0,1.0*30
$GPRMC,102336.221,A,4039.901,N,00324.057,W,16089.6,118.1,141121,000.0,W*62
$GPGGA,102337.221,4037.338,N,00319.237,W,1,12,1.0,0.0,M,0.0,M,,*7C
$GPGSA,A,3,01,02,03,04,05,06,07,08,09,10,11,12,1.0,1.0,1.0*30
$GPRMC,102337.221,A,4037.338,N,00319.237,W,11206.1,207.4,141121,000.0,W*6A
$GPGGA,102338.221,4034.444,N,00320.741,W,1,12,1.0,0.0,M,0.0,M,,*72
$GPGSA,A,3,01,02,03,04,05,06,07,08,09,10,11,12,1.0,1.0,1.0*30
$GPRMC,102338.221,A,4034.444,N,00320.741,W,14796.9,208.1,141121,000.0,W*6F
$GPGGA,102339.221,4030.640,N,00322.780,W,1,12,1.0,0.0,M,0.0,M,,*7E
$GPGSA,A,3,01,02,03,04,05,06,07,08,09,10,11,12,1.0,1.0,1.0*30
$GPRMC,102339.221,A,4030.640,N,00322.780,W,14654.4,200.2,141121,000.0,W*6A
$GPGGA,102340.221,4026.723,N,00324.222,W,1,12,1.0,0.0,M,0.0,M,,*78
$GPGSA,A,3,01,02,03,04,05,06,07,08,09,10,11,12,1.0,1.0,1.0*30
$GPRMC,102340.221,A,4026.723,N,00324.222,W,11185.6,254.4,141121,000.0,W*67
$GPGGA,102341.221,4025.657,N,00328.054,W,1,12,1.0,0.0,M,0.0,M,,*77
$GPGSA,A,3,01,02,03,04,05,06,07,08,09,10,11,12,1.0,1.0,1.0*30
$GPRMC,102341.221,A,4025.657,N,00328.054,W,4955.2,289.0,141121,000.0,W*59
$GPGGA,102342.221,4026.221,N,00329.702,W,1,12,1.0,0.0,M,0.0,M,,*77
$GPGSA,A,3,01,02,03,04,05,06,07,08,09,10,11,12,1.0,1.0,1.0*30
$GPRMC,102342.221,A,4026.221,N,00329.702,W,3140.0,310.6,141121,000.0,W*57
$GPGGA,102343.221,4026.872,N,00330.464,W,1,12,1.0,0.0,M,0.0,M,,*71
$GPGSA,A,3,01,02,03,04,05,06,07,08,09,10,11,12,1.0,1.0,1.0*30
$GPRMC,102343.221,A,4026.872,N,00330.464,W,5343.6,311.3,141121,000.0,W*54
$GPGGA,102344.221,4027.992,N,00331.741,W,1,12,1.0,0.0,M,0.0,M,,*7D
$GPGSA,A,3,01,02,03,04,05,06,07,08,09,10,11,12,1.0,1.0,1.0*30
$GPRMC,102344.221,A,4027.992,N,00331.741,W,2012.7,314.7,141121,000.0,W*58
$GPGGA,102345.221,4028.435,N,00332.189,W,1,12,1.0,0.0,M,0.0,M,,*72
$GPGSA,A,3,01,02,03,04,05,06,07,08,09,10,11,12,1.0,1.0,1.0*30
$GPRMC,102345.221,A,4028.435,N,00332.189,W,1697.0,313.7,141121,000.0,W*5F
$GPGGA,102346.221,4028.803,N,00332.575,W,1,12,1.0,0.0,M,0.0,M,,*7F
$GPGSA,A,3,01,02,03,04,05,06,07,08,09,10,11,12,1.0,1.0,1.0*30
$GPRMC,102346.221,A,4028.803,N,00332.575,W,1498.7,314.6,141121,000.0,W*5E
$GPGGA,102347.221,4029.132,N,00332.910,W,1,12,1.0,0.0,M,0.0,M,,*7B
$GPGSA,A,3,01,02,03,04,05,06,07,08,09,10,11,12,1.0,1.0,1.0*30
$GPRMC,102347.221,A,4029.132,N,00332.910,W,1543.6,315.9,141121,000.0,W*52
$GPGGA,102348.221,4029.477,N,00333.245,W,1,12,1.0,0.0,M,0.0,M,,*7A
$GPGSA,A,3,01,02,03,04,05,06,07,08,09,10,11,12,1.0,1.0,1.0*30
$GPRMC,102348.221,A,4029.477,N,00333.245,W,1543.6,315.9,141121,000.0,W*53
